{
  "source": {
    "provider": "FAA NTAD Runways View",
    "layer_url": "https://services.arcgis.com/xOi1kZaI0eWDREZv/ArcGIS/rest/services/Runways_View/FeatureServer/0",
    "data_effective_date": "2025/12/25"
  },
  "runways": [
    {
      "airport": "KDET",
      "faa_airport_id": "DET",
      "airport_name": "COLEMAN A YOUNG MUNI",
      "runway": "15/33",
      "surface": "ASPH",
      "condition": "GOOD",
      "length_ft": 5092,
      "width_ft": 100,
      "end_a": {
        "ident": "15",
        "lat": 42.417966,
        "lon": -83.0162288
      },
      "end_b": {
        "ident": "33",
        "lat": 42.40676111,
        "lon": -83.00496775
      },
      "polygon": [
        [-83.0048192643936, 42.4068430501025],
        [-83.0051162339518, 42.4066791699958],
        [-83.0107462641966, 42.4122817483103],
        [-83.0163772969612, 42.4178840450563],
        [-83.0160803031485, 42.4180479542479],
        [-83.010449282062, 42.4124456429625],
        [-83.0048192643936, 42.4068430501025]
      ]
    },
    {
      "airport": "KDTW",
      "faa_airport_id": "DTW",
      "airport_name": "DETROIT METRO WAYNE COUNTY",
      "runway": "03L/21R",
      "surface": "CONC",
      "condition": "EXCELLENT",
      "length_ft": 8501,
      "width_ft": 150,
      "end_a": {
        "ident": "03L",
        "lat": 42.20783558,
        "lon": -83.35121891
      },
      "end_b": {
        "ident": "21R",
        "lat": 42.22829405,
        "lon": -83.33614083
      },
      "polygon": [
        [-83.3459511589917, 42.2145564221553],
        [-83.3509761226886, 42.2077367151877],
        [-83.3514616980323, 42.2079344448699],
        [-83.3464367711663, 42.2147541730705],
        [-83.3414107627286, 42.2215736738533],
        [-83.3363836727194, 42.2283929457061],
        [-83.3358979877813, 42.2281951530238],
        [-83.3409251137231, 42.2213759010511],
        [-83.3459511589917, 42.2145564221553]
      ]
    },
    {
      "airport": "KDTW",
      "faa_airport_id": "DTW",
      "airport_name": "DETROIT METRO WAYNE COUNTY",
      "runway": "03R/21L",
      "surface": "CONC",
      "condition": "EXCELLENT",
      "length_ft": 10001,
      "width_ft": 150,
      "end_a": {
        "ident": "03R",
        "lat": 42.1956143,
        "lon": -83.35180188
      },
      "end_b": {
        "ident": "21L",
        "lat": 42.219682,
        "lon": -83.33406991
      },
      "polygon": [
        [-83.347127379787, 42.2015326332422],
        [-83.351559126613, 42.1955154508749],
        [-83.3520446336848, 42.1957131489263],
        [-83.3476129182998, 42.2017303490696],
        [-83.3431803638883, 42.2077473721468],
        [-83.3387469668571, 42.2137642167024],
        [-83.3343127281044, 42.2197808852729],
        [-83.3338270925736, 42.2195831141732],
        [-83.3382613636656, 42.2135664640181],
        [-83.3426947930362, 42.2075496378866],
        [-83.347127379787, 42.2015326332422]
      ]
    },
    {
      "airport": "KDTW",
      "faa_airport_id": "DTW",
      "airport_name": "DETROIT METRO WAYNE COUNTY",
      "runway": "04L/22R",
      "surface": "CONC",
      "condition": "EXCELLENT",
      "length_ft": 10000,
      "width_ft": 150,
      "end_a": {
        "ident": "04L",
        "lat": 42.20217266,
        "lon": -83.38400008
      },
      "end_b": {
        "ident": "22R",
        "lat": 42.22624502,
        "lon": -83.36628097
      },
      "polygon": [
        [-83.3793287128551, 42.2080922351903],
        [-83.3837572446107, 42.2020738887635],
        [-83.3842429160741, 42.2022714312105],
        [-83.3798144157595, 42.2082897960817],
        [-83.3753850746218, 42.2143079841574],
        [-83.370954892661, 42.2203259939818],
        [-83.3665238698771, 42.2263438280912],
        [-83.3660380699546, 42.2261462119187],
        [-83.3704691250778, 42.2201283968929],
        [-83.3748993402763, 42.2141104061608],
        [-83.3793287128551, 42.2080922351903]
      ]
    },
    {
      "airport": "KDTW",
      "faa_airport_id": "DTW",
      "airport_name": "DETROIT METRO WAYNE COUNTY",
      "runway": "04R/22L",
      "surface": "CONC",
      "condition": "EXCELLENT",
      "length_ft": 12003,
      "width_ft": 200,
      "end_a": {
        "ident": "04R",
        "lat": 42.20232377,
        "lon": -83.37126936
      },
      "end_b": {
        "ident": "22L",
        "lat": 42.23121233,
        "lon": -83.34999041
      },
      "polygon": [
        [-83.3656276791086, 42.2094145233307],
        [-83.3709456238439, 42.2021920141023],
        [-83.3715930971613, 42.2024555249576],
        [-83.36627520363, 42.2096780639455],
        [-83.3609560991697, 42.2169003466951],
        [-83.3556357810854, 42.2241223729906],
        [-83.3503142511738, 42.2313441439466],
        [-83.3496665712438, 42.2310805141539],
        [-83.3549881532577, 42.223858772907],
        [-83.3603085234443, 42.2166367770027],
        [-83.3656276791086, 42.2094145233307]
      ]
    },
    {
      "airport": "KDTW",
      "faa_airport_id": "DTW",
      "airport_name": "DETROIT METRO WAYNE COUNTY",
      "runway": "09L/27R",
      "surface": "CONC",
      "condition": "EXCELLENT",
      "length_ft": 8708,
      "width_ft": 150,
      "end_a": {
        "ident": "09L",
        "lat": 42.21696725,
        "lon": -83.36316788
      },
      "end_b": {
        "ident": "27R",
        "lat": 42.21750608,
        "lon": -83.33103183
      },
      "polygon": [
        [-83.3524496633851, 42.2169421101026],
        [-83.3631615835664, 42.2167615001649],
        [-83.3631741752518, 42.2171729992287],
        [-83.3524621850019, 42.2173536099854],
        [-83.3417501336665, 42.2175332209579],
        [-83.3310380212458, 42.2177118308241],
        [-83.3310256388679, 42.2173003292838],
        [-83.3417376812201, 42.217121718919],
        [-83.3524496633851, 42.2169421101026]
      ]
    },
    {
      "airport": "KDTW",
      "faa_airport_id": "DTW",
      "airport_name": "DETROIT METRO WAYNE COUNTY",
      "runway": "09R/27L",
      "surface": "CONC",
      "condition": "FAIR",
      "length_ft": 8500,
      "width_ft": 150,
      "end_a": {
        "ident": "09R",
        "lat": 42.19901505,
        "lon": -83.36172911
      },
      "end_b": {
        "ident": "27L",
        "lat": 42.19953811,
        "lon": -83.33036877
      },
      "polygon": [
        [-83.351269497189, 42.1989846049271],
        [-83.3617228516889, 42.1988093001585],
        [-83.3617353679157, 42.1992208010519],
        [-83.3512819451439, 42.1993961066752],
        [-83.3408284639817, 42.1995704608405],
        [-83.3303749262256, 42.1997438622245],
        [-83.3303626139163, 42.1993323567516],
        [-83.3408160842987, 42.1991589569003],
        [-83.351269497189, 42.1989846049271]
      ]
    },
    {
      "airport": "KFNT",
      "faa_airport_id": "FNT",
      "airport_name": "BISHOP INTL",
      "runway": "09/27",
      "surface": "ASPH",
      "condition": "GOOD",
      "length_ft": 7201,
      "width_ft": 150,
      "end_a": {
        "ident": "09",
        "lat": 42.96897516,
        "lon": -83.75982538
      },
      "end_b": {
        "ident": "27",
        "lat": 42.96957691,
        "lon": -83.73293438
      },
      "polygon": [
        [-83.7508532231208, 42.9689707647735],
        [-83.7598167998753, 42.9687694812142],
        [-83.7598339585955, 42.9691808392717],
        [-83.7508703216539, 42.9693821247714],
        [-83.7419066254234, 42.9695827102332],
        [-83.7329428699042, 42.9697825910626],
        [-83.7329258899487, 42.9693712291418],
        [-83.7418895852808, 42.9691713489475],
        [-83.7508532231208, 42.9689707647735]
      ]
    },
    {
      "airport": "KFNT",
      "faa_airport_id": "FNT",
      "airport_name": "BISHOP INTL",
      "runway": "18/36",
      "surface": "ASPH",
      "condition": "GOOD",
      "length_ft": 7852,
      "width_ft": 150,
      "end_a": {
        "ident": "18",
        "lat": 42.97273616,
        "lon": -83.74345633
      },
      "end_b": {
        "ident": "36",
        "lat": 42.95119702,
        "lon": -83.74300886
      },
      "polygon": [
        [-83.7427287635715, 42.9512001581491],
        [-83.7432889556776, 42.951193880922],
        [-83.7434381110491, 42.9583736029012],
        [-83.7435873005565, 42.9655533161493],
        [-83.7437365241999, 42.9727330197038],
        [-83.7431761362611, 42.9727392999918],
        [-83.7430269781946, 42.9655595951983],
        [-83.7428778533659, 42.9583798820257],
        [-83.7427287635715, 42.9512001581491]
      ]
    }
  ]
}
